uuid,spot_number,shot_number,shots_in_spot,image_filename,image_width,image_height,image_quality,capture_datetime,latitude,longitude,altitude_m,altitude_accuracy_m,gps_accuracy_m,gps_reading_count,camera_pitch,camera_roll,camera_heading,municipality,barangay,farm_name,crops,temperature_c,humidity_percent,notes,device_id,capture_mode,ph,k,p,n
aeeed204,1,1,10,images/2026/01/21/latrinidad_balili_bsuback_20260121_003127_aeeed204.jpg,1080.0,1080.0,1080p,2026-01-21T00:31:27.435Z,16.453933,120.591581,1363.0,6.0,3.3,1.0,18.0,-8.0,4.0,La Trinidad,Balili,BSU Back,"cabbage,custom_chinese_cabbage",16.9,79.0,,TECNO_TECNO_CM8_5EAA20,field,6.4,1.0,0.0,0.0
a18676dc,1,2,10,images/2026/01/21/latrinidad_balili_bsuback_20260121_003130_a18676dc.jpg,1080.0,1080.0,1080p,2026-01-21T00:31:30.356Z,16.453933,120.591581,1363.0,6.0,3.3,1.0,18.0,1.0,355.0,La Trinidad,Balili,BSU Back,"cabbage,custom_chinese_cabbage",16.9,79.0,,TECNO_TECNO_CM8_5EAA20,field,6.4,1.0,0.0,0.0
f781136b,1,3,10,images/2026/01/21/latrinidad_balili_bsuback_20260121_003133_f781136b.jpg,1080.0,1080.0,1080p,2026-01-21T00:31:33.202Z,16.453933,120.591581,1363.0,6.0,3.3,1.0,18.0,26.0,346.0,La Trinidad,Balili,BSU Back,"cabbage,custom_chinese_cabbage",16.9,79.0,,TECNO_TECNO_CM8_5EAA20,field,6.4,1.0,0.0,0.0
7cfb041f,1,4,10,images/2026/01/21/latrinidad_balili_bsuback_20260121_003137_7cfb041f.jpg,1080.0,1080.0,1080p,2026-01-21T00:31:37.907Z,16.453933,120.591581,1363.0,6.0,3.3,1.0,38.0,33.0,331.0,La Trinidad,Balili,BSU Back,"cabbage,custom_chinese_cabbage",16.9,79.0,,TECNO_TECNO_CM8_5EAA20,field,6.4,1.0,0.0,0.0
db27f1eb,1,5,10,images/2026/01/21/latrinidad_balili_bsuback_20260121_003140_db27f1eb.jpg,1080.0,1080.0,1080p,2026-01-21T00:31:40.736Z,16.453933,120.591581,1363.0,6.0,3.3,1.0,46.0,32.0,342.0,La Trinidad,Balili,BSU Back,"cabbage,custom_chinese_cabbage",16.9,79.0,,TECNO_TECNO_CM8_5EAA20,field,6.4,1.0,0.0,0.0
96bf360c,1,6,10,images/2026/01/21/latrinidad_balili_bsuback_20260121_003144_96bf360c.jpg,1080.0,1080.0,1080p,2026-01-21T00:31:44.907Z,16.453933,120.591581,1363.0,6.0,3.3,1.0,39.0,-18.0,8.0,La Trinidad,Balili,BSU Back,"cabbage,custom_chinese_cabbage",16.9,79.0,,TECNO_TECNO_CM8_5EAA20,field,6.4,1.0,0.0,0.0
112ef8c4,1,7,10,images/2026/01/21/latrinidad_balili_bsuback_20260121_003149_112ef8c4.jpg,1080.0,1080.0,1080p,2026-01-21T00:31:49.926Z,16.453933,120.591581,1363.0,6.0,3.3,1.0,20.0,-43.0,325.0,La Trinidad,Balili,BSU Back,"cabbage,custom_chinese_cabbage",16.9,79.0,,TECNO_TECNO_CM8_5EAA20,field,6.4,1.0,0.0,0.0
1275bf50,1,8,10,images/2026/01/21/latrinidad_balili_bsuback_20260121_003200_1275bf50.jpg,1080.0,1080.0,1080p,2026-01-21T00:32:00.437Z,16.453933,120.591581,1363.0,6.0,3.3,1.0,43.0,11.0,99.0,La Trinidad,Balili,BSU Back,"cabbage,custom_chinese_cabbage",16.9,79.0,,TECNO_TECNO_CM8_5EAA20,field,6.4,1.0,0.0,0.0
7abe8ee7,1,9,10,images/2026/01/21/latrinidad_balili_bsuback_20260121_003203_7abe8ee7.jpg,1080.0,1080.0,1080p,2026-01-21T00:32:03.762Z,16.453933,120.591581,1363.0,6.0,3.3,1.0,20.0,51.0,72.0,La Trinidad,Balili,BSU Back,"cabbage,custom_chinese_cabbage",16.9,79.0,,TECNO_TECNO_CM8_5EAA20,field,6.4,1.0,0.0,0.0
fb7138ab,1,10,10,images/2026/01/21/latrinidad_balili_bsuback_20260121_003211_fb7138ab.jpg,1080.0,1080.0,1080p,2026-01-21T00:32:11.445Z,16.453933,120.591581,1363.0,6.0,3.3,1.0,15.0,-6.0,356.0,La Trinidad,Balili,BSU Back,"cabbage,custom_chinese_cabbage",16.9,79.0,,TECNO_TECNO_CM8_5EAA20,field,6.4,1.0,0.0,0.0
6c88ac7d,2,1,10,images/2026/01/21/latrinidad_balili_bsuback_20260121_003253_6c88ac7d.jpg,1080.0,1080.0,1080p,2026-01-21T00:32:53.239Z,16.453927,120.591525,1359.0,2.0,3.0,1.0,24.0,33.0,301.0,La Trinidad,Balili,BSU Back,"cabbage,custom_chinese_cabbage",16.9,79.0,,TECNO_TECNO_CM8_5EAA20,field,6.4,0.0,0.0,0.0
334240c9,2,2,10,images/2026/01/21/latrinidad_balili_bsuback_20260121_003256_334240c9.jpg,1080.0,1080.0,1080p,2026-01-21T00:32:56.622Z,16.453922,120.591506,1358.0,15.0,3.0,1.0,23.0,33.0,294.0,La Trinidad,Balili,BSU Back,"cabbage,custom_chinese_cabbage",16.9,79.0,,TECNO_TECNO_CM8_5EAA20,field,6.4,0.0,0.0,0.0
ab7d4593,2,3,10,images/2026/01/21/latrinidad_balili_bsuback_20260121_003300_ab7d4593.jpg,1080.0,1080.0,1080p,2026-01-21T00:33:00.045Z,16.453922,120.591506,1358.0,15.0,3.0,1.0,30.0,37.0,329.0,La Trinidad,Balili,BSU Back,"cabbage,custom_chinese_cabbage",16.9,79.0,,TECNO_TECNO_CM8_5EAA20,field,6.4,0.0,0.0,0.0
89dd44c7,2,4,10,images/2026/01/21/latrinidad_balili_bsuback_20260121_003304_89dd44c7.jpg,1080.0,1080.0,1080p,2026-01-21T00:33:04.403Z,16.453922,120.591506,1358.0,15.0,3.0,1.0,15.0,-46.0,3.0,La Trinidad,Balili,BSU Back,"cabbage,custom_chinese_cabbage",16.9,79.0,,TECNO_TECNO_CM8_5EAA20,field,6.4,0.0,0.0,0.0
7a20fcfe,2,5,10,images/2026/01/21/latrinidad_balili_bsuback_20260121_003309_7a20fcfe.jpg,1080.0,1080.0,1080p,2026-01-21T00:33:09.890Z,16.453922,120.591506,1358.0,15.0,3.0,1.0,12.0,52.0,110.0,La Trinidad,Balili,BSU Back,"cabbage,custom_chinese_cabbage",16.9,79.0,,TECNO_TECNO_CM8_5EAA20,field,6.4,0.0,0.0,0.0
2a6889bd,2,6,10,images/2026/01/21/latrinidad_balili_bsuback_20260121_003313_2a6889bd.jpg,1080.0,1080.0,1080p,2026-01-21T00:33:13.683Z,16.453922,120.591506,1358.0,15.0,3.0,1.0,16.0,-50.0,199.0,La Trinidad,Balili,BSU Back,"cabbage,custom_chinese_cabbage",16.9,79.0,,TECNO_TECNO_CM8_5EAA20,field,6.4,0.0,0.0,0.0
c169c15d,2,7,10,images/2026/01/21/latrinidad_balili_bsuback_20260121_003316_c169c15d.jpg,1080.0,1080.0,1080p,2026-01-21T00:33:16.708Z,16.453922,120.591506,1358.0,15.0,3.0,1.0,18.0,-41.0,200.0,La Trinidad,Balili,BSU Back,"cabbage,custom_chinese_cabbage",16.9,79.0,,TECNO_TECNO_CM8_5EAA20,field,6.4,0.0,0.0,0.0
14b7b2d2,2,8,10,images/2026/01/21/latrinidad_balili_bsuback_20260121_003320_14b7b2d2.jpg,1080.0,1080.0,1080p,2026-01-21T00:33:20.770Z,16.453922,120.591506,1358.0,15.0,3.0,1.0,16.0,51.0,166.0,La Trinidad,Balili,BSU Back,"cabbage,custom_chinese_cabbage",16.9,79.0,,TECNO_TECNO_CM8_5EAA20,field,6.4,0.0,0.0,0.0
8089d36b,2,9,10,images/2026/01/21/latrinidad_balili_bsuback_20260121_003324_8089d36b.jpg,1080.0,1080.0,1080p,2026-01-21T00:33:24.573Z,16.453922,120.591506,1358.0,15.0,3.0,1.0,48.0,1.0,159.0,La Trinidad,Balili,BSU Back,"cabbage,custom_chinese_cabbage",16.9,79.0,,TECNO_TECNO_CM8_5EAA20,field,6.4,0.0,0.0,0.0
f3a634a8,2,10,10,images/2026/01/21/latrinidad_balili_bsuback_20260121_003328_f3a634a8.jpg,1080.0,1080.0,1080p,2026-01-21T00:33:28.796Z,16.453922,120.591506,1358.0,15.0,3.0,1.0,33.0,2.0,177.0,La Trinidad,Balili,BSU Back,"cabbage,custom_chinese_cabbage",16.9,79.0,,TECNO_TECNO_CM8_5EAA20,field,6.4,0.0,0.0,0.0
5648081d,2,1,5,images/2026/01/21/latrinidad_balili_bsuback_20260121_055849_5648081d.jpg,1080.0,1080.0,1080p,2026-01-21T05:58:49.456Z,,,,,,,14.0,0.0,193.0,La Trinidad,Balili,BSU Back,"cabbage,custom_chinese_cabbage",,,,TECNO_TECNO_CM8_DF2CAC,controlled,6.4,0.0,0.0,0.0
4a4cc156,2,2,5,images/2026/01/21/latrinidad_balili_bsuback_20260121_055853_4a4cc156.jpg,1080.0,1080.0,1080p,2026-01-21T05:58:53.037Z,,,,,,,16.0,0.0,153.0,La Trinidad,Balili,BSU Back,"cabbage,custom_chinese_cabbage",,,,TECNO_TECNO_CM8_DF2CAC,controlled,6.4,0.0,0.0,0.0
03530df5,2,3,5,images/2026/01/21/latrinidad_balili_bsuback_20260121_055856_03530df5.jpg,1080.0,1080.0,1080p,2026-01-21T05:58:56.922Z,,,,,,,16.0,-1.0,237.0,La Trinidad,Balili,BSU Back,"cabbage,custom_chinese_cabbage",,,,TECNO_TECNO_CM8_DF2CAC,controlled,6.4,0.0,0.0,0.0
b0be4a11,2,4,5,images/2026/01/21/latrinidad_balili_bsuback_20260121_055900_b0be4a11.jpg,1080.0,1080.0,1080p,2026-01-21T05:59:00.785Z,,,,,,,5.0,-2.0,193.0,La Trinidad,Balili,BSU Back,"cabbage,custom_chinese_cabbage",,,,TECNO_TECNO_CM8_DF2CAC,controlled,6.4,0.0,0.0,0.0
e8baf836,2,5,5,images/2026/01/21/latrinidad_balili_bsuback_20260121_055905_e8baf836.jpg,1080.0,1080.0,1080p,2026-01-21T05:59:05.613Z,,,,,,,8.0,-4.0,264.0,La Trinidad,Balili,BSU Back,"cabbage,custom_chinese_cabbage",,,,TECNO_TECNO_CM8_DF2CAC,controlled,6.4,0.0,0.0,0.0
d50692f6,3,1,5,images/2026/01/21/latrinidad_balili_bsuback_20260121_060036_d50692f6.jpg,1080.0,1080.0,1080p,2026-01-21T06:00:36.527Z,,,,,,,0.0,-8.0,285.0,La Trinidad,Balili,BSU Back,"cabbage,custom_chinese_cabbage",,,,TECNO_TECNO_CM8_DF2CAC,controlled,6.4,0.0,0.0,0.0
36582afc,3,2,5,images/2026/01/21/latrinidad_balili_bsuback_20260121_060040_36582afc.jpg,1080.0,1080.0,1080p,2026-01-21T06:00:40.422Z,,,,,,,21.0,-1.0,285.0,La Trinidad,Balili,BSU Back,"cabbage,custom_chinese_cabbage",,,,TECNO_TECNO_CM8_DF2CAC,controlled,6.4,0.0,0.0,0.0
551b50d7,3,3,5,images/2026/01/21/latrinidad_balili_bsuback_20260121_060051_551b50d7.jpg,1080.0,1080.0,1080p,2026-01-21T06:00:51.872Z,,,,,,,7.0,11.0,296.0,La Trinidad,Balili,BSU Back,"cabbage,custom_chinese_cabbage",,,,TECNO_TECNO_CM8_DF2CAC,controlled,6.4,0.0,0.0,0.0
e1305424,3,4,5,images/2026/01/21/latrinidad_balili_bsuback_20260121_060055_e1305424.jpg,1080.0,1080.0,1080p,2026-01-21T06:00:55.948Z,,,,,,,-17.0,-25.0,283.0,La Trinidad,Balili,BSU Back,"cabbage,custom_chinese_cabbage",,,,TECNO_TECNO_CM8_DF2CAC,controlled,6.4,0.0,0.0,0.0
0405644a,3,5,5,images/2026/01/21/latrinidad_balili_bsuback_20260121_060100_0405644a.jpg,1080.0,1080.0,1080p,2026-01-21T06:01:00.274Z,,,,,,,20.0,2.0,284.0,La Trinidad,Balili,BSU Back,"cabbage,custom_chinese_cabbage",,,,TECNO_TECNO_CM8_DF2CAC,controlled,6.4,0.0,0.0,0.0
fd1cb8e3,3,1,10,images/2026/01/21/latrinidad_balili_bsuback_20260121_003420_fd1cb8e3.jpg,1080.0,1080.0,1080p,2026-01-21T00:34:20.370Z,16.453938,120.59154,1365.0,19.0,3.4,1.0,28.0,7.0,81.0,La Trinidad,Balili,BSU Back,"cabbage,custom_chinese",16.9,79.0,,realme_RMX3840_0FE2DF,field,6.4,0.0,0.0,0.0
0dc8cdd8,3,2,10,images/2026/01/21/latrinidad_balili_bsuback_20260121_003425_0dc8cdd8.jpg,1080.0,1080.0,1080p,2026-01-21T00:34:25.473Z,16.453938,120.59154,1365.0,19.0,3.4,1.0,28.0,9.0,46.0,La Trinidad,Balili,BSU Back,"cabbage,custom_chinese",16.9,79.0,,realme_RMX3840_0FE2DF,field,6.4,0.0,0.0,0.0
f1609858,3,3,10,images/2026/01/21/latrinidad_balili_bsuback_20260121_003433_f1609858.jpg,1080.0,1080.0,1080p,2026-01-21T00:34:33.538Z,16.453938,120.59154,1365.0,19.0,3.4,1.0,28.0,-3.0,130.0,La Trinidad,Balili,BSU Back,"cabbage,custom_chinese",16.9,79.0,,realme_RMX3840_0FE2DF,field,6.4,0.0,0.0,0.0
2fc5eae0,3,4,10,images/2026/01/21/latrinidad_balili_bsuback_20260121_003437_2fc5eae0.jpg,1080.0,1080.0,1080p,2026-01-21T00:34:37.433Z,16.453938,120.59154,1365.0,19.0,3.4,1.0,29.0,-4.0,131.0,La Trinidad,Balili,BSU Back,"cabbage,custom_chinese",16.9,79.0,,realme_RMX3840_0FE2DF,field,6.4,0.0,0.0,0.0
7ab9485a,3,5,10,images/2026/01/21/latrinidad_balili_bsuback_20260121_003450_7ab9485a.jpg,1080.0,1080.0,1080p,2026-01-21T00:34:50.250Z,16.453938,120.59154,1365.0,19.0,3.4,1.0,18.0,-4.0,303.0,La Trinidad,Balili,BSU Back,"cabbage,custom_chinese",16.9,79.0,,realme_RMX3840_0FE2DF,field,6.4,0.0,0.0,0.0
2af289f7,3,6,10,images/2026/01/21/latrinidad_balili_bsuback_20260121_003453_2af289f7.jpg,1080.0,1080.0,1080p,2026-01-21T00:34:53.876Z,16.453938,120.59154,1365.0,19.0,3.4,1.0,21.0,-2.0,302.0,La Trinidad,Balili,BSU Back,"cabbage,custom_chinese",16.9,79.0,,realme_RMX3840_0FE2DF,field,6.4,0.0,0.0,0.0
0458bc74,3,7,10,images/2026/01/21/latrinidad_balili_bsuback_20260121_003503_0458bc74.jpg,1080.0,1080.0,1080p,2026-01-21T00:35:03.376Z,16.453951,120.591527,1363.0,10.0,3.2,1.0,25.0,4.0,221.0,La Trinidad,Balili,BSU Back,"cabbage,custom_chinese",16.9,79.0,,realme_RMX3840_0FE2DF,field,6.4,0.0,0.0,0.0
c4cd83c4,3,8,10,images/2026/01/21/latrinidad_balili_bsuback_20260121_003507_c4cd83c4.jpg,1080.0,1080.0,1080p,2026-01-21T00:35:07.295Z,16.453951,120.591527,1363.0,10.0,3.2,1.0,25.0,4.0,221.0,La Trinidad,Balili,BSU Back,"cabbage,custom_chinese",16.9,79.0,,realme_RMX3840_0FE2DF,field,6.4,0.0,0.0,0.0
df2f7e59,3,9,10,images/2026/01/21/latrinidad_balili_bsuback_20260121_003514_df2f7e59.jpg,1080.0,1080.0,1080p,2026-01-21T00:35:14.287Z,16.453951,120.591527,1363.0,10.0,3.2,1.0,6.0,20.0,298.0,La Trinidad,Balili,BSU Back,"cabbage,custom_chinese",16.9,79.0,,realme_RMX3840_0FE2DF,field,6.4,0.0,0.0,0.0
353c9f8e,3,10,10,images/2026/01/21/latrinidad_balili_bsuback_20260121_003531_353c9f8e.jpg,1080.0,1080.0,1080p,2026-01-21T00:35:31.482Z,16.453951,120.591527,1363.0,10.0,3.2,1.0,37.0,6.0,294.0,La Trinidad,Balili,BSU Back,"cabbage,custom_chinese",16.9,79.0,,realme_RMX3840_0FE2DF,field,6.4,0.0,0.0,0.0
55315d2c,4,1,10,images/2026/01/21/latrinidad_balili_bsuback_20260121_003629_55315d2c.jpg,1080.0,1080.0,1080p,2026-01-21T00:36:29.431Z,16.453982,120.59158,1358.0,8.0,3.2,1.0,18.0,-46.0,12.0,La Trinidad,Balili,BSU Back,"cabbage,custom_chinese_cabbage",16.9,79.0,,TECNO_TECNO_CM8_5EAA20,field,6.4,0.0,0.0,0.0
ee421acd,4,2,10,images/2026/01/21/latrinidad_balili_bsuback_20260121_003632_ee421acd.jpg,1080.0,1080.0,1080p,2026-01-21T00:36:32.033Z,16.453982,120.59158,1358.0,8.0,3.2,1.0,10.0,-45.0,19.0,La Trinidad,Balili,BSU Back,"cabbage,custom_chinese_cabbage",16.9,79.0,,TECNO_TECNO_CM8_5EAA20,field,6.4,0.0,0.0,0.0
281325cc,4,3,10,images/2026/01/21/latrinidad_balili_bsuback_20260121_003635_281325cc.jpg,1080.0,1080.0,1080p,2026-01-21T00:36:35.067Z,16.45397,120.591565,1358.0,8.0,3.0,1.0,6.0,-52.0,64.0,La Trinidad,Balili,BSU Back,"cabbage,custom_chinese_cabbage",16.9,79.0,,TECNO_TECNO_CM8_5EAA20,field,6.4,0.0,0.0,0.0
a267e8e4,4,4,10,images/2026/01/21/latrinidad_balili_bsuback_20260121_003642_a267e8e4.jpg,1080.0,1080.0,1080p,2026-01-21T00:36:42.426Z,16.453973,120.591587,1358.0,8.0,3.0,1.0,-3.0,-58.0,94.0,La Trinidad,Balili,BSU Back,"cabbage,custom_chinese_cabbage",16.9,79.0,,TECNO_TECNO_CM8_5EAA20,field,6.4,0.0,0.0,0.0
1cbd1b47,4,5,10,images/2026/01/21/latrinidad_balili_bsuback_20260121_003652_1cbd1b47.jpg,1080.0,1080.0,1080p,2026-01-21T00:36:52.449Z,16.453985,120.591603,1358.0,8.0,3.0,1.0,-3.0,-64.0,168.0,La Trinidad,Balili,BSU Back,"cabbage,custom_chinese_cabbage",16.9,79.0,,TECNO_TECNO_CM8_5EAA20,field,6.4,0.0,0.0,0.0
e1fd8742,4,6,10,images/2026/01/21/latrinidad_balili_bsuback_20260121_003655_e1fd8742.jpg,1080.0,1080.0,1080p,2026-01-21T00:36:55.349Z,16.453985,120.591603,1358.0,8.0,3.0,1.0,-4.0,-62.0,180.0,La Trinidad,Balili,BSU Back,"cabbage,custom_chinese_cabbage",16.9,79.0,,TECNO_TECNO_CM8_5EAA20,field,6.4,0.0,0.0,0.0
4c2520cf,4,7,10,images/2026/01/21/latrinidad_balili_bsuback_20260121_003658_4c2520cf.jpg,1080.0,1080.0,1080p,2026-01-21T00:36:58.394Z,16.453985,120.591603,1358.0,8.0,3.0,1.0,-3.0,-59.0,184.0,La Trinidad,Balili,BSU Back,"cabbage,custom_chinese_cabbage",16.9,79.0,,TECNO_TECNO_CM8_5EAA20,field,6.4,0.0,0.0,0.0
159c3310,4,8,10,images/2026/01/21/latrinidad_balili_bsuback_20260121_003702_159c3310.jpg,1080.0,1080.0,1080p,2026-01-21T00:37:02.237Z,16.453985,120.591603,1358.0,8.0,3.0,1.0,-2.0,-61.0,195.0,La Trinidad,Balili,BSU Back,"cabbage,custom_chinese_cabbage",16.9,79.0,,TECNO_TECNO_CM8_5EAA20,field,6.4,0.0,0.0,0.0
5b589b5c,4,9,10,images/2026/01/21/latrinidad_balili_bsuback_20260121_003705_5b589b5c.jpg,1080.0,1080.0,1080p,2026-01-21T00:37:05.648Z,16.453985,120.591603,1358.0,8.0,3.0,1.0,-1.0,-59.0,186.0,La Trinidad,Balili,BSU Back,"cabbage,custom_chinese_cabbage",16.9,79.0,,TECNO_TECNO_CM8_5EAA20,field,6.4,0.0,0.0,0.0
acc00303,4,10,10,images/2026/01/21/latrinidad_balili_bsuback_20260121_003708_acc00303.jpg,1080.0,1080.0,1080p,2026-01-21T00:37:08.459Z,16.453985,120.591603,1358.0,8.0,3.0,1.0,-1.0,-55.0,187.0,La Trinidad,Balili,BSU Back,"cabbage,custom_chinese_cabbage",16.9,79.0,,TECNO_TECNO_CM8_5EAA20,field,6.4,0.0,0.0,0.0
9204a9b8,5,1,10,images/2026/01/21/latrinidad_balili_bsuback_20260121_004129_9204a9b8.jpg,1080.0,1080.0,1080p,2026-01-21T00:41:29.043Z,16.45396,120.591679,1360.0,10.0,3.7,1.0,6.0,0.0,175.0,La Trinidad,Balili,BSU Back,"cabbage,custom_chinese",18.0,71.0,,realme_RMX3840_0FE2DF,field,6.8,0.0,0.0,0.0
020ef6fd,5,3,10,images/2026/01/21/latrinidad_balili_bsuback_20260121_004140_020ef6fd.jpg,1080.0,1080.0,1080p,2026-01-21T00:41:40.865Z,16.45396,120.591679,1360.0,10.0,3.7,1.0,14.0,-1.0,121.0,La Trinidad,Balili,BSU Back,"cabbage,custom_chinese",18.0,71.0,,realme_RMX3840_0FE2DF,field,6.8,0.0,0.0,0.0
082546ed,5,5,10,images/2026/01/21/latrinidad_balili_bsuback_20260121_004152_082546ed.jpg,1080.0,1080.0,1080p,2026-01-21T00:41:52.818Z,16.453946,120.591665,1359.0,5.0,3.6,1.0,24.0,-2.0,0.0,La Trinidad,Balili,BSU Back,"cabbage,custom_chinese",18.0,71.0,,realme_RMX3840_0FE2DF,field,6.8,0.0,0.0,0.0
fa7addeb,5,7,10,images/2026/01/21/latrinidad_balili_bsuback_20260121_004202_fa7addeb.jpg,1080.0,1080.0,1080p,2026-01-21T00:42:02.595Z,16.453938,120.591647,1358.0,6.0,3.4,1.0,20.0,6.0,250.0,La Trinidad,Balili,BSU Back,"cabbage,custom_chinese",18.0,71.0,,realme_RMX3840_0FE2DF,field,6.8,0.0,0.0,0.0
4d98bc98,5,8,10,images/2026/01/21/latrinidad_balili_bsuback_20260121_004205_4d98bc98.jpg,1080.0,1080.0,1080p,2026-01-21T00:42:05.813Z,16.453938,120.591647,1358.0,6.0,3.4,1.0,21.0,6.0,250.0,La Trinidad,Balili,BSU Back,"cabbage,custom_chinese",18.0,71.0,,realme_RMX3840_0FE2DF,field,6.8,0.0,0.0,0.0
155e70d1,6,1,5,images/2026/01/21/latrinidad_balili_bsuback_20260121_060148_155e70d1.jpg,1080.0,1080.0,1080p,2026-01-21T06:01:48.818Z,,,,,,,23.0,3.0,251.0,La Trinidad,Balili,BSU Back,"cabbage,custom_chinese_cabbage",,,,TECNO_TECNO_CM8_DF2CAC,controlled,6.4,0.0,0.0,0.0
f5c9a8f3,6,2,5,images/2026/01/21/latrinidad_balili_bsuback_20260121_060152_f5c9a8f3.jpg,1080.0,1080.0,1080p,2026-01-21T06:01:52.977Z,,,,,,,24.0,2.0,214.0,La Trinidad,Balili,BSU Back,"cabbage,custom_chinese_cabbage",,,,TECNO_TECNO_CM8_DF2CAC,controlled,6.4,0.0,0.0,0.0
e19ffe61,6,3,5,images/2026/01/21/latrinidad_balili_bsuback_20260121_060157_e19ffe61.jpg,1080.0,1080.0,1080p,2026-01-21T06:01:57.557Z,,,,,,,33.0,1.0,273.0,La Trinidad,Balili,BSU Back,"cabbage,custom_chinese_cabbage",,,,TECNO_TECNO_CM8_DF2CAC,controlled,6.4,0.0,0.0,0.0
735da657,6,4,5,images/2026/01/21/latrinidad_balili_bsuback_20260121_060201_735da657.jpg,1080.0,1080.0,1080p,2026-01-21T06:02:01.963Z,,,,,,,17.0,5.0,213.0,La Trinidad,Balili,BSU Back,"cabbage,custom_chinese_cabbage",,,,TECNO_TECNO_CM8_DF2CAC,controlled,6.4,0.0,0.0,0.0
c037476b,6,5,5,images/2026/01/21/latrinidad_balili_bsuback_20260121_060206_c037476b.jpg,1080.0,1080.0,1080p,2026-01-21T06:02:06.784Z,,,,,,,39.0,0.0,215.0,La Trinidad,Balili,BSU Back,"cabbage,custom_chinese_cabbage",,,,TECNO_TECNO_CM8_DF2CAC,controlled,6.4,0.0,0.0,0.0
f01ef4c7,6,1,10,images/2026/01/21/latrinidad_balili_bsuback_20260121_004412_f01ef4c7.jpg,1080.0,1080.0,1080p,2026-01-21T00:44:12.092Z,16.453841,120.591565,1360.0,3.0,3.1,1.0,26.0,1.0,78.0,La Trinidad,Balili,BSU Back,potato,18.0,71.0,,realme_RMX3840_0FE2DF,field,6.4,0.0,0.0,0.0
4df6a355,6,2,10,images/2026/01/21/latrinidad_balili_bsuback_20260121_004415_4df6a355.jpg,1080.0,1080.0,1080p,2026-01-21T00:44:15.285Z,16.453841,120.591565,1360.0,3.0,3.1,1.0,25.0,-1.0,80.0,La Trinidad,Balili,BSU Back,potato,18.0,71.0,,realme_RMX3840_0FE2DF,field,6.4,0.0,0.0,0.0
f039d994,6,3,10,images/2026/01/21/latrinidad_balili_bsuback_20260121_004424_f039d994.jpg,1080.0,1080.0,1080p,2026-01-21T00:44:24.676Z,16.453841,120.591565,1360.0,3.0,3.1,1.0,29.0,1.0,148.0,La Trinidad,Balili,BSU Back,potato,18.0,71.0,,realme_RMX3840_0FE2DF,field,6.4,0.0,0.0,0.0
27547ad7,6,4,10,images/2026/01/21/latrinidad_balili_bsuback_20260121_004428_27547ad7.jpg,1080.0,1080.0,1080p,2026-01-21T00:44:28.071Z,16.453841,120.591565,1360.0,3.0,3.1,1.0,28.0,-1.0,148.0,La Trinidad,Balili,BSU Back,potato,18.0,71.0,,realme_RMX3840_0FE2DF,field,6.4,0.0,0.0,0.0
2a2e7ac0,6,5,10,images/2026/01/21/latrinidad_balili_bsuback_20260121_004437_2a2e7ac0.jpg,1080.0,1080.0,1080p,2026-01-21T00:44:37.605Z,16.453841,120.591565,1360.0,3.0,3.1,1.0,31.0,-2.0,248.0,La Trinidad,Balili,BSU Back,potato,18.0,71.0,,realme_RMX3840_0FE2DF,field,6.4,0.0,0.0,0.0
d476c328,6,6,10,images/2026/01/21/latrinidad_balili_bsuback_20260121_004441_d476c328.jpg,1080.0,1080.0,1080p,2026-01-21T00:44:41.054Z,16.453841,120.591565,1360.0,3.0,3.1,1.0,32.0,-1.0,248.0,La Trinidad,Balili,BSU Back,potato,18.0,71.0,,realme_RMX3840_0FE2DF,field,6.4,0.0,0.0,0.0
24fd4136,6,7,10,images/2026/01/21/latrinidad_balili_bsuback_20260121_004449_24fd4136.jpg,1080.0,1080.0,1080p,2026-01-21T00:44:49.708Z,16.453841,120.591565,1360.0,3.0,3.1,1.0,34.0,2.0,327.0,La Trinidad,Balili,BSU Back,potato,18.0,71.0,,realme_RMX3840_0FE2DF,field,6.4,0.0,0.0,0.0
23da0fff,6,8,10,images/2026/01/21/latrinidad_balili_bsuback_20260121_004453_23da0fff.jpg,1080.0,1080.0,1080p,2026-01-21T00:44:53.045Z,16.453841,120.591565,1360.0,3.0,3.1,1.0,35.0,2.0,326.0,La Trinidad,Balili,BSU Back,potato,18.0,71.0,,realme_RMX3840_0FE2DF,field,6.4,0.0,0.0,0.0
dd052179,6,9,10,images/2026/01/21/latrinidad_balili_bsuback_20260121_004459_dd052179.jpg,1080.0,1080.0,1080p,2026-01-21T00:44:59.560Z,16.453841,120.591565,1360.0,3.0,3.1,1.0,-1.0,1.0,325.0,La Trinidad,Balili,BSU Back,potato,18.0,71.0,,realme_RMX3840_0FE2DF,field,6.4,0.0,0.0,0.0
c440348c,6,10,10,images/2026/01/21/latrinidad_balili_bsuback_20260121_004503_c440348c.jpg,1080.0,1080.0,1080p,2026-01-21T00:45:03.149Z,16.453841,120.591565,1360.0,3.0,3.1,1.0,0.0,0.0,326.0,La Trinidad,Balili,BSU Back,potato,18.0,71.0,,realme_RMX3840_0FE2DF,field,6.4,0.0,0.0,0.0
fe0d4ddb,7,1,10,images/2026/01/21/latrinidad_balili_bsuback_20260121_004256_fe0d4ddb.jpg,1080.0,1080.0,1080p,2026-01-21T00:42:56.726Z,16.45386,120.591508,1365.0,15.0,3.5,1.0,21.0,-41.0,165.0,La Trinidad,Balili,BSU Back,potato,18.0,71.0,,TECNO_TECNO_CM8_5EAA20,field,6.4,1.0,1.0,0.0
526d2fca,7,2,10,images/2026/01/21/latrinidad_balili_bsuback_20260121_004259_526d2fca.jpg,1080.0,1080.0,1080p,2026-01-21T00:42:59.596Z,16.45386,120.591508,1365.0,15.0,3.5,1.0,11.0,-48.0,190.0,La Trinidad,Balili,BSU Back,potato,18.0,71.0,,TECNO_TECNO_CM8_5EAA20,field,6.4,1.0,1.0,0.0
704ad8fd,7,3,10,images/2026/01/21/latrinidad_balili_bsuback_20260121_004302_704ad8fd.jpg,1080.0,1080.0,1080p,2026-01-21T00:43:02.282Z,16.45386,120.591508,1365.0,15.0,3.5,1.0,10.0,-47.0,189.0,La Trinidad,Balili,BSU Back,potato,18.0,71.0,,TECNO_TECNO_CM8_5EAA20,field,6.4,1.0,1.0,0.0
13418f60,7,4,10,images/2026/01/21/latrinidad_balili_bsuback_20260121_004305_13418f60.jpg,1080.0,1080.0,1080p,2026-01-21T00:43:05.906Z,16.45386,120.591508,1365.0,15.0,3.5,1.0,-5.0,-52.0,250.0,La Trinidad,Balili,BSU Back,potato,18.0,71.0,,TECNO_TECNO_CM8_5EAA20,field,6.4,1.0,1.0,0.0
235aad83,7,5,10,images/2026/01/21/latrinidad_balili_bsuback_20260121_004308_235aad83.jpg,1080.0,1080.0,1080p,2026-01-21T00:43:08.741Z,16.45386,120.591508,1365.0,15.0,3.5,1.0,-4.0,-49.0,220.0,La Trinidad,Balili,BSU Back,potato,18.0,71.0,,TECNO_TECNO_CM8_5EAA20,field,6.4,1.0,1.0,0.0
9e08a19a,7,6,10,images/2026/01/21/latrinidad_balili_bsuback_20260121_004318_9e08a19a.jpg,1080.0,1080.0,1080p,2026-01-21T00:43:18.280Z,16.45386,120.591508,1365.0,15.0,3.5,1.0,-2.0,-59.0,97.0,La Trinidad,Balili,BSU Back,potato,18.0,71.0,,TECNO_TECNO_CM8_5EAA20,field,6.4,1.0,1.0,0.0
40bd9f39,7,7,10,images/2026/01/21/latrinidad_balili_bsuback_20260121_004321_40bd9f39.jpg,1080.0,1080.0,1080p,2026-01-21T00:43:21.464Z,16.45386,120.591508,1365.0,15.0,3.5,1.0,2.0,-47.0,103.0,La Trinidad,Balili,BSU Back,potato,18.0,71.0,,TECNO_TECNO_CM8_5EAA20,field,6.4,1.0,1.0,0.0
730b76a9,7,8,10,images/2026/01/21/latrinidad_balili_bsuback_20260121_004326_730b76a9.jpg,1080.0,1080.0,1080p,2026-01-21T00:43:26.719Z,16.45386,120.591508,1365.0,15.0,3.5,1.0,2.0,-19.0,14.0,La Trinidad,Balili,BSU Back,potato,18.0,71.0,,TECNO_TECNO_CM8_5EAA20,field,6.4,1.0,1.0,0.0
663a63e2,7,9,10,images/2026/01/21/latrinidad_balili_bsuback_20260121_004329_663a63e2.jpg,1080.0,1080.0,1080p,2026-01-21T00:43:29.819Z,16.45386,120.591508,1365.0,15.0,3.5,1.0,3.0,-20.0,17.0,La Trinidad,Balili,BSU Back,potato,18.0,71.0,,TECNO_TECNO_CM8_5EAA20,field,6.4,1.0,1.0,0.0
888bf576,7,10,10,images/2026/01/21/latrinidad_balili_bsuback_20260121_004333_888bf576.jpg,1080.0,1080.0,1080p,2026-01-21T00:43:33.672Z,16.45386,120.591508,1365.0,15.0,3.5,1.0,7.0,-5.0,8.0,La Trinidad,Balili,BSU Back,potato,18.0,71.0,,TECNO_TECNO_CM8_5EAA20,field,6.4,1.0,1.0,0.0
fe0ca83a,7,1,5,images/2026/01/21/latrinidad_balili_bsuback_20260121_060220_fe0ca83a.jpg,1080.0,1080.0,1080p,2026-01-21T06:02:20.885Z,,,,,,,14.0,4.0,228.0,La Trinidad,Balili,BSU Back,"cabbage,custom_chinese_cabbage",,,,TECNO_TECNO_CM8_DF2CAC,controlled,6.4,1.0,1.0,0.0
15140475,7,2,5,images/2026/01/21/latrinidad_balili_bsuback_20260121_060225_15140475.jpg,1080.0,1080.0,1080p,2026-01-21T06:02:25.523Z,,,,,,,40.0,0.0,290.0,La Trinidad,Balili,BSU Back,"cabbage,custom_chinese_cabbage",,,,TECNO_TECNO_CM8_DF2CAC,controlled,6.4,1.0,1.0,0.0
3b47e8e1,7,3,5,images/2026/01/21/latrinidad_balili_bsuback_20260121_060235_3b47e8e1.jpg,1080.0,1080.0,1080p,2026-01-21T06:02:35.560Z,,,,,,,32.0,-6.0,176.0,La Trinidad,Balili,BSU Back,"cabbage,custom_chinese_cabbage",,,,TECNO_TECNO_CM8_DF2CAC,controlled,6.4,1.0,1.0,0.0
5375712a,7,4,5,images/2026/01/21/latrinidad_balili_bsuback_20260121_060240_5375712a.jpg,1080.0,1080.0,1080p,2026-01-21T06:02:40.876Z,,,,,,,30.0,-4.0,186.0,La Trinidad,Balili,BSU Back,"cabbage,custom_chinese_cabbage",,,,TECNO_TECNO_CM8_DF2CAC,controlled,6.4,1.0,1.0,0.0
84b28024,7,5,5,images/2026/01/21/latrinidad_balili_bsuback_20260121_060302_84b28024.jpg,1080.0,1080.0,1080p,2026-01-21T06:03:02.448Z,,,,,,,28.0,-13.0,219.0,La Trinidad,Balili,BSU Back,"cabbage,custom_chinese_cabbage",,,,TECNO_TECNO_CM8_DF2CAC,controlled,6.4,1.0,1.0,0.0
9a63018a,8,1,10,images/2026/01/21/latrinidad_balili_bsuback_20260121_004639_9a63018a.jpg,1080.0,1080.0,1080p,2026-01-21T00:46:39.638Z,16.453808,120.591487,1363.0,4.0,1.5,1.0,37.0,12.0,327.0,La Trinidad,Balili,BSU Back,potato,18.0,71.0,,TECNO_TECNO_CM8_5EAA20,field,6.4,1.0,1.0,0.0
643f5477,8,2,10,images/2026/01/21/latrinidad_balili_bsuback_20260121_004642_643f5477.jpg,1080.0,1080.0,1080p,2026-01-21T00:46:42.675Z,16.453808,120.591487,1363.0,4.0,1.5,1.0,19.0,49.0,310.0,La Trinidad,Balili,BSU Back,potato,18.0,71.0,,TECNO_TECNO_CM8_5EAA20,field,6.4,1.0,1.0,0.0
80dc8c99,8,3,10,images/2026/01/21/latrinidad_balili_bsuback_20260121_004649_80dc8c99.jpg,1080.0,1080.0,1080p,2026-01-21T00:46:49.749Z,16.453808,120.591487,1363.0,4.0,1.5,1.0,26.0,-41.0,351.0,La Trinidad,Balili,BSU Back,potato,18.0,71.0,,TECNO_TECNO_CM8_5EAA20,field,6.4,1.0,1.0,0.0
908c8c89,8,4,10,images/2026/01/21/latrinidad_balili_bsuback_20260121_004700_908c8c89.jpg,1080.0,1080.0,1080p,2026-01-21T00:47:00.150Z,16.453808,120.591487,1363.0,4.0,1.5,1.0,-3.0,-50.0,253.0,La Trinidad,Balili,BSU Back,potato,18.0,71.0,,TECNO_TECNO_CM8_5EAA20,field,6.4,1.0,1.0,0.0
3ddfd0d0,8,5,10,images/2026/01/21/latrinidad_balili_bsuback_20260121_004703_3ddfd0d0.jpg,1080.0,1080.0,1080p,2026-01-21T00:47:03.560Z,16.453808,120.591487,1363.0,4.0,1.5,1.0,5.0,-27.0,238.0,La Trinidad,Balili,BSU Back,potato,18.0,71.0,,TECNO_TECNO_CM8_5EAA20,field,6.4,1.0,1.0,0.0
130f20c5,8,6,10,images/2026/01/21/latrinidad_balili_bsuback_20260121_004706_130f20c5.jpg,1080.0,1080.0,1080p,2026-01-21T00:47:06.744Z,16.453808,120.591487,1363.0,4.0,1.5,1.0,42.0,2.0,210.0,La Trinidad,Balili,BSU Back,potato,18.0,71.0,,TECNO_TECNO_CM8_5EAA20,field,6.4,1.0,1.0,0.0
d0fb74d2,8,7,10,images/2026/01/21/latrinidad_balili_bsuback_20260121_004710_d0fb74d2.jpg,1080.0,1080.0,1080p,2026-01-21T00:47:10.043Z,16.453808,120.591487,1363.0,4.0,1.5,1.0,-2.0,-20.0,243.0,La Trinidad,Balili,BSU Back,potato,18.0,71.0,,TECNO_TECNO_CM8_5EAA20,field,6.4,1.0,1.0,0.0
e896f4e9,8,8,10,images/2026/01/21/latrinidad_balili_bsuback_20260121_004729_e896f4e9.jpg,1080.0,1080.0,1080p,2026-01-21T00:47:29.690Z,16.453808,120.591487,1363.0,4.0,1.5,1.0,-7.0,-67.0,100.0,La Trinidad,Balili,BSU Back,potato,18.0,71.0,,TECNO_TECNO_CM8_5EAA20,field,6.4,1.0,1.0,0.0
6c7a7e79,8,9,10,images/2026/01/21/latrinidad_balili_bsuback_20260121_004737_6c7a7e79.jpg,1080.0,1080.0,1080p,2026-01-21T00:47:37.456Z,16.453808,120.591487,1363.0,4.0,1.5,1.0,7.0,-55.0,70.0,La Trinidad,Balili,BSU Back,potato,18.0,71.0,,TECNO_TECNO_CM8_5EAA20,field,6.4,1.0,1.0,0.0
60f88874,8,10,10,images/2026/01/21/latrinidad_balili_bsuback_20260121_004741_60f88874.jpg,1080.0,1080.0,1080p,2026-01-21T00:47:41.368Z,16.453808,120.591487,1363.0,4.0,1.5,1.0,30.0,-21.0,83.0,La Trinidad,Balili,BSU Back,potato,18.0,71.0,,TECNO_TECNO_CM8_5EAA20,field,6.4,1.0,1.0,0.0
5bc73340,8,1,5,images/2026/01/21/latrinidad_balili_20260121_052857_5bc73340.jpg,1080.0,1080.0,1080p,2026-01-21T05:28:57.824Z,,,,,,,28.0,-1.0,196.0,La Trinidad,Balili,,custom_pole_beans,,,,TECNO_TECNO_CM8_DF2CAC,controlled,6.4,1.0,1.0,0.0
f3f9ae88,8,2,5,images/2026/01/21/latrinidad_balili_20260121_052900_f3f9ae88.jpg,1080.0,1080.0,1080p,2026-01-21T05:29:00.263Z,,,,,,,22.0,-1.0,196.0,La Trinidad,Balili,,custom_pole_beans,,,,TECNO_TECNO_CM8_DF2CAC,controlled,6.4,1.0,1.0,0.0
ac790eea,8,3,5,images/2026/01/21/latrinidad_balili_20260121_052902_ac790eea.jpg,1080.0,1080.0,1080p,2026-01-21T05:29:02.433Z,,,,,,,15.0,-1.0,195.0,La Trinidad,Balili,,custom_pole_beans,,,,TECNO_TECNO_CM8_DF2CAC,controlled,6.4,1.0,1.0,0.0
7de360b4,8,4,5,images/2026/01/21/latrinidad_balili_20260121_052905_7de360b4.jpg,1080.0,1080.0,1080p,2026-01-21T05:29:05.403Z,,,,,,,11.0,-1.0,195.0,La Trinidad,Balili,,custom_pole_beans,,,,TECNO_TECNO_CM8_DF2CAC,controlled,6.4,1.0,1.0,0.0
86ec222d,9,1,10,images/2026/01/21/latrinidad_balili_bsuback_20260121_004831_86ec222d.jpg,1080.0,1080.0,1080p,2026-01-21T00:48:31.068Z,16.453718,120.59147,1363.0,21.0,1.5,1.0,1.0,-63.0,91.0,La Trinidad,Balili,BSU Back,potato,18.0,71.0,,TECNO_TECNO_CM8_5EAA20,field,6.4,0.0,0.0,0.0
dc8968d2,9,2,10,images/2026/01/21/latrinidad_balili_bsuback_20260121_004845_dc8968d2.jpg,1080.0,1080.0,1080p,2026-01-21T00:48:45.977Z,16.453718,120.59147,1363.0,21.0,1.5,1.0,-17.0,-53.0,231.0,La Trinidad,Balili,BSU Back,potato,18.0,71.0,,TECNO_TECNO_CM8_5EAA20,field,6.4,0.0,0.0,0.0
f1eb70fe,9,3,10,images/2026/01/21/latrinidad_balili_bsuback_20260121_004849_f1eb70fe.jpg,1080.0,1080.0,1080p,2026-01-21T00:48:49.695Z,16.453718,120.59147,1363.0,21.0,1.5,1.0,15.0,-37.0,197.0,La Trinidad,Balili,BSU Back,potato,18.0,71.0,,TECNO_TECNO_CM8_5EAA20,field,6.4,0.0,0.0,0.0
8c4f74e7,9,4,10,images/2026/01/21/latrinidad_balili_bsuback_20260121_004854_8c4f74e7.jpg,1080.0,1080.0,1080p,2026-01-21T00:48:54.571Z,16.453718,120.59147,1363.0,21.0,1.5,1.0,-1.0,-53.0,197.0,La Trinidad,Balili,BSU Back,potato,18.0,71.0,,TECNO_TECNO_CM8_5EAA20,field,6.4,0.0,0.0,0.0
0d20c4d1,9,5,10,images/2026/01/21/latrinidad_balili_bsuback_20260121_004858_0d20c4d1.jpg,1080.0,1080.0,1080p,2026-01-21T00:48:58.815Z,16.453718,120.59147,1363.0,21.0,1.5,1.0,14.0,-30.0,188.0,La Trinidad,Balili,BSU Back,potato,18.0,71.0,,TECNO_TECNO_CM8_5EAA20,field,6.4,0.0,0.0,0.0
f30c5579,9,6,10,images/2026/01/21/latrinidad_balili_bsuback_20260121_004902_f30c5579.jpg,1080.0,1080.0,1080p,2026-01-21T00:49:02.652Z,16.453718,120.59147,1363.0,21.0,1.5,1.0,32.0,-6.0,181.0,La Trinidad,Balili,BSU Back,potato,18.0,71.0,,TECNO_TECNO_CM8_5EAA20,field,6.4,0.0,0.0,0.0
1d21bac0,9,7,10,images/2026/01/21/latrinidad_balili_bsuback_20260121_004907_1d21bac0.jpg,1080.0,1080.0,1080p,2026-01-21T00:49:07.596Z,16.453718,120.59147,1363.0,21.0,1.5,1.0,8.0,-15.0,200.0,La Trinidad,Balili,BSU Back,potato,18.0,71.0,,TECNO_TECNO_CM8_5EAA20,field,6.4,0.0,0.0,0.0
232d4de4,9,8,10,images/2026/01/21/latrinidad_balili_bsuback_20260121_004911_232d4de4.jpg,1080.0,1080.0,1080p,2026-01-21T00:49:11.213Z,16.453718,120.59147,1363.0,21.0,1.5,1.0,-7.0,-47.0,230.0,La Trinidad,Balili,BSU Back,potato,18.0,71.0,,TECNO_TECNO_CM8_5EAA20,field,6.4,0.0,0.0,0.0
960122a6,9,9,10,images/2026/01/21/latrinidad_balili_bsuback_20260121_004915_960122a6.jpg,1080.0,1080.0,1080p,2026-01-21T00:49:15.702Z,16.453718,120.59147,1363.0,21.0,1.5,1.0,3.0,-9.0,170.0,La Trinidad,Balili,BSU Back,potato,18.0,71.0,,TECNO_TECNO_CM8_5EAA20,field,6.4,0.0,0.0,0.0
8c15db20,9,10,10,images/2026/01/21/latrinidad_balili_bsuback_20260121_004919_8c15db20.jpg,1080.0,1080.0,1080p,2026-01-21T00:49:19.752Z,16.453718,120.59147,1363.0,21.0,1.5,1.0,0.0,-8.0,180.0,La Trinidad,Balili,BSU Back,potato,18.0,71.0,,TECNO_TECNO_CM8_5EAA20,field,6.4,0.0,0.0,0.0
f46f4586,9,1,5,images/2026/01/21/latrinidad_balili_bsuback_20260121_060400_f46f4586.jpg,1080.0,1080.0,1080p,2026-01-21T06:04:00.031Z,,,,,,,18.0,2.0,236.0,La Trinidad,Balili,BSU Back,potato,,,,TECNO_TECNO_CM8_DF2CAC,controlled,6.4,0.0,0.0,0.0
5bda9e3b,9,2,5,images/2026/01/21/latrinidad_balili_bsuback_20260121_060404_5bda9e3b.jpg,1080.0,1080.0,1080p,2026-01-21T06:04:04.745Z,,,,,,,19.0,1.0,206.0,La Trinidad,Balili,BSU Back,potato,,,,TECNO_TECNO_CM8_DF2CAC,controlled,6.4,0.0,0.0,0.0
48b6ac60,9,3,5,images/2026/01/21/latrinidad_balili_bsuback_20260121_060409_48b6ac60.jpg,1080.0,1080.0,1080p,2026-01-21T06:04:09.828Z,,,,,,,18.0,-6.0,185.0,La Trinidad,Balili,BSU Back,potato,,,,TECNO_TECNO_CM8_DF2CAC,controlled,6.4,0.0,0.0,0.0
acf7bb7d,9,4,5,images/2026/01/21/latrinidad_balili_bsuback_20260121_060420_acf7bb7d.jpg,1080.0,1080.0,1080p,2026-01-21T06:04:20.270Z,,,,,,,15.0,32.0,280.0,La Trinidad,Balili,BSU Back,potato,,,,TECNO_TECNO_CM8_DF2CAC,controlled,6.4,0.0,0.0,0.0
05b72b06,9,5,5,images/2026/01/21/latrinidad_balili_bsuback_20260121_060426_05b72b06.jpg,1080.0,1080.0,1080p,2026-01-21T06:04:26.363Z,,,,,,,14.0,4.0,267.0,La Trinidad,Balili,BSU Back,potato,,,,TECNO_TECNO_CM8_DF2CAC,controlled,6.4,0.0,0.0,0.0
2275fde6,9,1,5,images/2026/01/21/latrinidad_balili_20260121_053038_2275fde6.jpg,1080.0,1080.0,1080p,2026-01-21T05:30:38.691Z,,,,,,,27.0,-2.0,197.0,La Trinidad,Balili,,custom_pole_beans,,,,TECNO_TECNO_CM8_DF2CAC,controlled,6.4,0.0,0.0,0.0
6bd09b8d,9,2,5,images/2026/01/21/latrinidad_balili_20260121_053041_6bd09b8d.jpg,1080.0,1080.0,1080p,2026-01-21T05:30:41.077Z,,,,,,,20.0,-1.0,196.0,La Trinidad,Balili,,custom_pole_beans,,,,TECNO_TECNO_CM8_DF2CAC,controlled,6.4,0.0,0.0,0.0
25a7c98e,9,3,5,images/2026/01/21/latrinidad_balili_20260121_053043_25a7c98e.jpg,1080.0,1080.0,1080p,2026-01-21T05:30:43.330Z,,,,,,,12.0,0.0,196.0,La Trinidad,Balili,,custom_pole_beans,,,,TECNO_TECNO_CM8_DF2CAC,controlled,6.4,0.0,0.0,0.0
13f2f155,9,4,5,images/2026/01/21/latrinidad_balili_20260121_053045_13f2f155.jpg,1080.0,1080.0,1080p,2026-01-21T05:30:45.741Z,,,,,,,5.0,1.0,196.0,La Trinidad,Balili,,custom_pole_beans,,,,TECNO_TECNO_CM8_DF2CAC,controlled,6.4,0.0,0.0,0.0
930f5c84,10,1,10,images/2026/01/21/latrinidad_balili_bsuback_20260121_005210_930f5c84.jpg,1080.0,1080.0,1080p,2026-01-21T00:52:10.726Z,16.453633,120.591582,1363.0,4.0,1.5,1.0,3.0,-51.0,218.0,La Trinidad,Balili,BSU Back,potato,18.5,67.0,,TECNO_TECNO_CM8_5EAA20,field,6.4,0.0,0.0,0.0
8f850494,10,2,10,images/2026/01/21/latrinidad_balili_bsuback_20260121_005214_8f850494.jpg,1080.0,1080.0,1080p,2026-01-21T00:52:14.522Z,16.453633,120.591582,1363.0,4.0,1.5,1.0,-2.0,-48.0,234.0,La Trinidad,Balili,BSU Back,potato,18.5,67.0,,TECNO_TECNO_CM8_5EAA20,field,6.4,0.0,0.0,0.0
0d441527,10,3,10,images/2026/01/21/latrinidad_balili_bsuback_20260121_005218_0d441527.jpg,1080.0,1080.0,1080p,2026-01-21T00:52:18.271Z,16.453633,120.591582,1363.0,4.0,1.5,1.0,-2.0,-46.0,226.0,La Trinidad,Balili,BSU Back,potato,18.5,67.0,,TECNO_TECNO_CM8_5EAA20,field,6.4,0.0,0.0,0.0
8bc7149b,10,4,10,images/2026/01/21/latrinidad_balili_bsuback_20260121_005222_8bc7149b.jpg,1080.0,1080.0,1080p,2026-01-21T00:52:22.408Z,16.453633,120.591582,1363.0,4.0,1.5,1.0,1.0,-1.0,216.0,La Trinidad,Balili,BSU Back,potato,18.5,67.0,,TECNO_TECNO_CM8_5EAA20,field,6.4,0.0,0.0,0.0
ff0fd30c,10,5,10,images/2026/01/21/latrinidad_balili_bsuback_20260121_005226_ff0fd30c.jpg,1080.0,1080.0,1080p,2026-01-21T00:52:26.410Z,16.453633,120.591582,1363.0,4.0,1.5,1.0,-3.0,-2.0,217.0,La Trinidad,Balili,BSU Back,potato,18.5,67.0,,TECNO_TECNO_CM8_5EAA20,field,6.4,0.0,0.0,0.0
195352ee,10,6,10,images/2026/01/21/latrinidad_balili_bsuback_20260121_005233_195352ee.jpg,1080.0,1080.0,1080p,2026-01-21T00:52:33.388Z,16.453633,120.591582,1363.0,4.0,1.5,1.0,53.0,-17.0,29.0,La Trinidad,Balili,BSU Back,potato,18.5,67.0,,TECNO_TECNO_CM8_5EAA20,field,6.4,0.0,0.0,0.0
4132f226,10,7,10,images/2026/01/21/latrinidad_balili_bsuback_20260121_005237_4132f226.jpg,1080.0,1080.0,1080p,2026-01-21T00:52:37.374Z,16.453633,120.591582,1363.0,4.0,1.5,1.0,56.0,-14.0,31.0,La Trinidad,Balili,BSU Back,potato,18.5,67.0,,TECNO_TECNO_CM8_5EAA20,field,6.4,0.0,0.0,0.0
189d3cdc,10,8,10,images/2026/01/21/latrinidad_balili_bsuback_20260121_005241_189d3cdc.jpg,1080.0,1080.0,1080p,2026-01-21T00:52:41.461Z,16.453633,120.591582,1363.0,4.0,1.5,1.0,4.0,-52.0,43.0,La Trinidad,Balili,BSU Back,potato,18.5,67.0,,TECNO_TECNO_CM8_5EAA20,field,6.4,0.0,0.0,0.0
bf49cef6,10,9,10,images/2026/01/21/latrinidad_balili_bsuback_20260121_005245_bf49cef6.jpg,1080.0,1080.0,1080p,2026-01-21T00:52:45.692Z,16.453633,120.591582,1363.0,4.0,1.5,1.0,6.0,-46.0,45.0,La Trinidad,Balili,BSU Back,potato,18.5,67.0,,TECNO_TECNO_CM8_5EAA20,field,6.4,0.0,0.0,0.0
1b863410,10,10,10,images/2026/01/21/latrinidad_balili_bsuback_20260121_005249_1b863410.jpg,1080.0,1080.0,1080p,2026-01-21T00:52:49.957Z,16.453633,120.591582,1363.0,4.0,1.5,1.0,5.0,-18.0,38.0,La Trinidad,Balili,BSU Back,potato,18.5,67.0,,TECNO_TECNO_CM8_5EAA20,field,6.4,0.0,0.0,0.0
cf352415,10,2,5,images/2026/01/21/latrinidad_balili_bsuback_20260121_055739_cf352415.jpg,1080.0,1080.0,1080p,2026-01-21T05:57:39.629Z,,,,,,,15.0,1.0,198.0,La Trinidad,Balili,BSU Back,"cabbage,custom_chinese_cabbage",,,,TECNO_TECNO_CM8_DF2CAC,controlled,6.4,0.0,0.0,0.0
de642ce4,10,3,5,images/2026/01/21/latrinidad_balili_bsuback_20260121_055804_de642ce4.jpg,1080.0,1080.0,1080p,2026-01-21T05:58:04.489Z,,,,,,,12.0,-1.0,220.0,La Trinidad,Balili,BSU Back,"cabbage,custom_chinese_cabbage",,,,TECNO_TECNO_CM8_DF2CAC,controlled,6.4,0.0,0.0,0.0
433bad72,10,4,5,images/2026/01/21/latrinidad_balili_bsuback_20260121_055808_433bad72.jpg,1080.0,1080.0,1080p,2026-01-21T05:58:08.320Z,,,,,,,10.0,-2.0,222.0,La Trinidad,Balili,BSU Back,"cabbage,custom_chinese_cabbage",,,,TECNO_TECNO_CM8_DF2CAC,controlled,6.4,0.0,0.0,0.0
b222b4b6,10,5,5,images/2026/01/21/latrinidad_balili_bsuback_20260121_055812_b222b4b6.jpg,1080.0,1080.0,1080p,2026-01-21T05:58:12.830Z,,,,,,,18.0,0.0,175.0,La Trinidad,Balili,BSU Back,"cabbage,custom_chinese_cabbage",,,,TECNO_TECNO_CM8_DF2CAC,controlled,6.4,0.0,0.0,0.0
fb908cd7,10,6,5,images/2026/01/21/latrinidad_balili_bsuback_20260121_060505_fb908cd7.jpg,1080.0,1080.0,1080p,2026-01-21T06:05:05.389Z,,,,,,,9.0,2.0,227.0,La Trinidad,Balili,BSU Back,potato,,,,TECNO_TECNO_CM8_DF2CAC,controlled,6.4,0.0,0.0,0.0
d864cd9c,10,1,5,images/2026/01/21/latrinidad_balili_20260121_052811_d864cd9c.jpg,1080.0,1080.0,1080p,2026-01-21T05:28:11.268Z,,,,,,,30.0,-1.0,197.0,La Trinidad,Balili,,custom_pole_beans,,,,TECNO_TECNO_CM8_DF2CAC,controlled,6.4,0.0,0.0,0.0
5f91dc99,10,2,5,images/2026/01/21/latrinidad_balili_20260121_052813_5f91dc99.jpg,1080.0,1080.0,1080p,2026-01-21T05:28:13.710Z,,,,,,,23.0,0.0,197.0,La Trinidad,Balili,,custom_pole_beans,,,,TECNO_TECNO_CM8_DF2CAC,controlled,6.4,0.0,0.0,0.0
1ea96919,10,3,5,images/2026/01/21/latrinidad_balili_20260121_052815_1ea96919.jpg,1080.0,1080.0,1080p,2026-01-21T05:28:15.941Z,,,,,,,14.0,1.0,196.0,La Trinidad,Balili,,custom_pole_beans,,,,TECNO_TECNO_CM8_DF2CAC,controlled,6.4,0.0,0.0,0.0
7da7dc35,10,4,5,images/2026/01/21/latrinidad_balili_20260121_052818_7da7dc35.jpg,1080.0,1080.0,1080p,2026-01-21T05:28:18.330Z,,,,,,,9.0,1.0,196.0,La Trinidad,Balili,,custom_pole_beans,,,,TECNO_TECNO_CM8_DF2CAC,controlled,6.4,0.0,0.0,0.0
3d445d44,10,1,10,images/2026/01/21/latrinidad_balili_bsuback_20260121_004810_3d445d44.jpg,1080.0,1080.0,1080p,2026-01-21T00:48:10.605Z,16.453723,120.591581,1363.0,4.0,3.8,1.0,31.0,5.0,306.0,La Trinidad,Balili,BSU Back,potato,18.0,71.0,,realme_RMX3840_0FE2DF,field,6.4,0.0,0.0,0.0
968910da,10,3,10,images/2026/01/21/latrinidad_balili_bsuback_20260121_004822_968910da.jpg,1080.0,1080.0,1080p,2026-01-21T00:48:22.979Z,16.453723,120.591581,1363.0,4.0,3.8,1.0,45.0,-1.0,37.0,La Trinidad,Balili,BSU Back,potato,18.0,71.0,,realme_RMX3840_0FE2DF,field,6.4,0.0,0.0,0.0
95d08c79,10,5,10,images/2026/01/21/latrinidad_balili_bsuback_20260121_004835_95d08c79.jpg,1080.0,1080.0,1080p,2026-01-21T00:48:35.485Z,16.453723,120.591581,1363.0,4.0,3.8,1.0,36.0,-5.0,134.0,La Trinidad,Balili,BSU Back,potato,18.0,71.0,,realme_RMX3840_0FE2DF,field,6.4,0.0,0.0,0.0
0b21c051,10,7,10,images/2026/01/21/latrinidad_balili_bsuback_20260121_004847_0b21c051.jpg,1080.0,1080.0,1080p,2026-01-21T00:48:47.119Z,16.453723,120.591581,1363.0,4.0,3.8,1.0,36.0,1.0,211.0,La Trinidad,Balili,BSU Back,potato,18.0,71.0,,realme_RMX3840_0FE2DF,field,6.4,0.0,0.0,0.0
23b4a903,10,9,10,images/2026/01/21/latrinidad_balili_bsuback_20260121_004858_23b4a903.jpg,1080.0,1080.0,1080p,2026-01-21T00:48:58.766Z,16.453723,120.591581,1363.0,4.0,3.8,1.0,0.0,-1.0,136.0,La Trinidad,Balili,BSU Back,potato,18.0,71.0,,realme_RMX3840_0FE2DF,field,6.4,0.0,0.0,0.0
75047094,11,1,5,images/2026/01/21/latrinidad_balili_bsuback_20260121_060643_75047094.jpg,1080.0,1080.0,1080p,2026-01-21T06:06:43.407Z,,,,,,,7.0,12.0,270.0,La Trinidad,Balili,BSU Back,cabbage,,,,TECNO_TECNO_CM8_DF2CAC,controlled,5.8,1.0,0.0,0.0
e6145cf3,11,2,5,images/2026/01/21/latrinidad_balili_bsuback_20260121_060648_e6145cf3.jpg,1080.0,1080.0,1080p,2026-01-21T06:06:48.431Z,,,,,,,5.0,37.0,266.0,La Trinidad,Balili,BSU Back,cabbage,,,,TECNO_TECNO_CM8_DF2CAC,controlled,5.8,1.0,0.0,0.0
c40c2bcb,11,3,5,images/2026/01/21/latrinidad_balili_bsuback_20260121_060653_c40c2bcb.jpg,1080.0,1080.0,1080p,2026-01-21T06:06:53.518Z,,,,,,,3.0,-24.0,277.0,La Trinidad,Balili,BSU Back,cabbage,,,,TECNO_TECNO_CM8_DF2CAC,controlled,5.8,1.0,0.0,0.0
34a5052e,11,4,5,images/2026/01/21/latrinidad_balili_bsuback_20260121_060658_34a5052e.jpg,1080.0,1080.0,1080p,2026-01-21T06:06:58.961Z,,,,,,,1.0,-31.0,233.0,La Trinidad,Balili,BSU Back,cabbage,,,,TECNO_TECNO_CM8_DF2CAC,controlled,5.8,1.0,0.0,0.0
4ddb51f5,11,5,5,images/2026/01/21/latrinidad_balili_bsuback_20260121_060704_4ddb51f5.jpg,1080.0,1080.0,1080p,2026-01-21T06:07:04.579Z,,,,,,,7.0,35.0,247.0,La Trinidad,Balili,BSU Back,cabbage,,,,TECNO_TECNO_CM8_DF2CAC,controlled,5.8,1.0,0.0,0.0
df6cc23c,11,1,5,images/2026/01/21/latrinidad_balili_20260121_053228_df6cc23c.jpg,1080.0,1080.0,1080p,2026-01-21T05:32:28.472Z,,,,,,,16.0,3.0,195.0,La Trinidad,Balili,,lettuce,,,,TECNO_TECNO_CM8_DF2CAC,controlled,5.8,1.0,0.0,0.0
feedf5a5,11,2,5,images/2026/01/21/latrinidad_balili_20260121_053231_feedf5a5.jpg,1080.0,1080.0,1080p,2026-01-21T05:32:31.647Z,,,,,,,22.0,-1.0,196.0,La Trinidad,Balili,,lettuce,,,,TECNO_TECNO_CM8_DF2CAC,controlled,5.8,1.0,0.0,0.0
a75dace3,11,3,5,images/2026/01/21/latrinidad_balili_20260121_053233_a75dace3.jpg,1080.0,1080.0,1080p,2026-01-21T05:32:33.999Z,,,,,,,14.0,0.0,195.0,La Trinidad,Balili,,lettuce,,,,TECNO_TECNO_CM8_DF2CAC,controlled,5.8,1.0,0.0,0.0
8b20058c,11,4,5,images/2026/01/21/latrinidad_balili_20260121_053236_8b20058c.jpg,1080.0,1080.0,1080p,2026-01-21T05:32:36.727Z,,,,,,,7.0,0.0,195.0,La Trinidad,Balili,,lettuce,,,,TECNO_TECNO_CM8_DF2CAC,controlled,5.8,1.0,0.0,0.0
9c8d5692,11,1,10,images/2026/01/21/latrinidad_balili_bsuback_20260121_005154_9c8d5692.jpg,1080.0,1080.0,1080p,2026-01-21T00:51:54.709Z,16.453653,120.591637,1363.0,3.0,3.8,1.0,10.0,10.0,122.0,La Trinidad,Balili,BSU Back,"lettuce,custom_iceberg",18.0,71.0,,realme_RMX3840_0FE2DF,field,5.8,1.0,0.0,0.0
1b85c11e,11,2,10,images/2026/01/21/latrinidad_balili_bsuback_20260121_005158_1b85c11e.jpg,1080.0,1080.0,1080p,2026-01-21T00:51:58.780Z,16.453653,120.591637,1363.0,3.0,3.8,1.0,6.0,7.0,122.0,La Trinidad,Balili,BSU Back,"lettuce,custom_iceberg",18.0,71.0,,realme_RMX3840_0FE2DF,field,5.8,1.0,0.0,0.0
0a345b98,11,5,10,images/2026/01/21/latrinidad_balili_bsuback_20260121_005219_0a345b98.jpg,1080.0,1080.0,1080p,2026-01-21T00:52:19.789Z,16.453653,120.591637,1363.0,3.0,3.8,1.0,45.0,-2.0,30.0,La Trinidad,Balili,BSU Back,"lettuce,custom_iceberg",18.0,71.0,,realme_RMX3840_0FE2DF,field,5.8,1.0,0.0,0.0
2f2b6b1a,11,7,10,images/2026/01/21/latrinidad_balili_bsuback_20260121_005231_2f2b6b1a.jpg,1080.0,1080.0,1080p,2026-01-21T00:52:31.114Z,16.453653,120.591637,1363.0,3.0,3.8,1.0,37.0,5.0,203.0,La Trinidad,Balili,BSU Back,"lettuce,custom_iceberg",18.0,71.0,,realme_RMX3840_0FE2DF,field,5.8,1.0,0.0,0.0
3ad9bb6f,11,9,10,images/2026/01/21/latrinidad_balili_bsuback_20260121_005240_3ad9bb6f.jpg,1080.0,1080.0,1080p,2026-01-21T00:52:40.911Z,16.453653,120.591637,1363.0,3.0,3.8,1.0,37.0,-4.0,299.0,La Trinidad,Balili,BSU Back,"lettuce,custom_iceberg",18.0,71.0,,realme_RMX3840_0FE2DF,field,5.8,1.0,0.0,0.0
32277658,12,1,10,images/2026/01/21/latrinidad_balili_bsuback_20260121_005442_32277658.jpg,1080.0,1080.0,1080p,2026-01-21T00:54:42.300Z,16.453633,120.591582,1363.0,4.0,1.5,1.0,5.0,-46.0,14.0,La Trinidad,Balili,BSU Back,"lettuce,custom_iceberg_lettuce",18.5,67.0,,TECNO_TECNO_CM8_5EAA20,field,6.8,0.0,0.0,0.0
1f64a960,12,2,10,images/2026/01/21/latrinidad_balili_bsuback_20260121_005446_1f64a960.jpg,1080.0,1080.0,1080p,2026-01-21T00:54:46.509Z,16.453633,120.591582,1363.0,4.0,1.5,1.0,8.0,-28.0,8.0,La Trinidad,Balili,BSU Back,"lettuce,custom_iceberg_lettuce",18.5,67.0,,TECNO_TECNO_CM8_5EAA20,field,6.8,0.0,0.0,0.0
b47b749a,12,3,10,images/2026/01/21/latrinidad_balili_bsuback_20260121_005450_b47b749a.jpg,1080.0,1080.0,1080p,2026-01-21T00:54:50.757Z,16.453633,120.591582,1363.0,4.0,1.5,1.0,36.0,-11.0,358.0,La Trinidad,Balili,BSU Back,"lettuce,custom_iceberg_lettuce",18.5,67.0,,TECNO_TECNO_CM8_5EAA20,field,6.8,0.0,0.0,0.0
d61aeed2,12,4,10,images/2026/01/21/latrinidad_balili_bsuback_20260121_005455_d61aeed2.jpg,1080.0,1080.0,1080p,2026-01-21T00:54:55.864Z,16.453633,120.591582,1363.0,4.0,1.5,1.0,55.0,-8.0,14.0,La Trinidad,Balili,BSU Back,"lettuce,custom_iceberg_lettuce",18.5,67.0,,TECNO_TECNO_CM8_5EAA20,field,6.8,0.0,0.0,0.0
0cec6d29,12,5,10,images/2026/01/21/latrinidad_balili_bsuback_20260121_005500_0cec6d29.jpg,1080.0,1080.0,1080p,2026-01-21T00:55:00.356Z,16.453633,120.591582,1363.0,4.0,1.5,1.0,0.0,-22.0,50.0,La Trinidad,Balili,BSU Back,"lettuce,custom_iceberg_lettuce",18.5,67.0,,TECNO_TECNO_CM8_5EAA20,field,6.8,0.0,0.0,0.0
36a132ed,12,6,10,images/2026/01/21/latrinidad_balili_bsuback_20260121_005506_36a132ed.jpg,1080.0,1080.0,1080p,2026-01-21T00:55:06.237Z,16.453633,120.591582,1363.0,4.0,1.5,1.0,-35.0,-4.0,5.0,La Trinidad,Balili,BSU Back,"lettuce,custom_iceberg_lettuce",18.5,67.0,,TECNO_TECNO_CM8_5EAA20,field,6.8,0.0,0.0,0.0
ca2288ec,12,7,10,images/2026/01/21/latrinidad_balili_bsuback_20260121_005511_ca2288ec.jpg,1080.0,1080.0,1080p,2026-01-21T00:55:11.782Z,16.453633,120.591582,1363.0,4.0,1.5,1.0,32.0,25.0,342.0,La Trinidad,Balili,BSU Back,"lettuce,custom_iceberg_lettuce",18.5,67.0,,TECNO_TECNO_CM8_5EAA20,field,6.8,0.0,0.0,0.0
8ac27d83,12,8,10,images/2026/01/21/latrinidad_balili_bsuback_20260121_005517_8ac27d83.jpg,1080.0,1080.0,1080p,2026-01-21T00:55:17.681Z,16.453633,120.591582,1363.0,4.0,1.5,1.0,-7.0,-48.0,203.0,La Trinidad,Balili,BSU Back,"lettuce,custom_iceberg_lettuce",18.5,67.0,,TECNO_TECNO_CM8_5EAA20,field,6.8,0.0,0.0,0.0
832a1dd7,12,9,10,images/2026/01/21/latrinidad_balili_bsuback_20260121_005522_832a1dd7.jpg,1080.0,1080.0,1080p,2026-01-21T00:55:22.307Z,16.453633,120.591582,1363.0,4.0,1.5,1.0,-4.0,-46.0,191.0,La Trinidad,Balili,BSU Back,"lettuce,custom_iceberg_lettuce",18.5,67.0,,TECNO_TECNO_CM8_5EAA20,field,6.8,0.0,0.0,0.0
d18a3fe1,12,10,10,images/2026/01/21/latrinidad_balili_bsuback_20260121_005527_d18a3fe1.jpg,1080.0,1080.0,1080p,2026-01-21T00:55:27.074Z,16.453633,120.591582,1363.0,4.0,1.5,1.0,1.0,-27.0,187.0,La Trinidad,Balili,BSU Back,"lettuce,custom_iceberg_lettuce",18.5,67.0,,TECNO_TECNO_CM8_5EAA20,field,6.8,0.0,0.0,0.0
a2c21b9b,12,1,5,images/2026/01/21/latrinidad_balili_20260121_053512_a2c21b9b.jpg,1080.0,1080.0,1080p,2026-01-21T05:35:12.924Z,,,,,,,30.0,1.0,195.0,La Trinidad,Balili,,lettuce,,,,TECNO_TECNO_CM8_DF2CAC,controlled,6.8,0.0,0.0,0.0
52000180,12,2,5,images/2026/01/21/latrinidad_balili_20260121_053515_52000180.jpg,1080.0,1080.0,1080p,2026-01-21T05:35:15.176Z,,,,,,,22.0,1.0,196.0,La Trinidad,Balili,,lettuce,,,,TECNO_TECNO_CM8_DF2CAC,controlled,6.8,0.0,0.0,0.0
6fb35f28,12,3,5,images/2026/01/21/latrinidad_balili_20260121_053517_6fb35f28.jpg,1080.0,1080.0,1080p,2026-01-21T05:35:17.585Z,,,,,,,14.0,0.0,196.0,La Trinidad,Balili,,lettuce,,,,TECNO_TECNO_CM8_DF2CAC,controlled,6.8,0.0,0.0,0.0
ff5107da,12,4,5,images/2026/01/21/latrinidad_balili_20260121_053519_ff5107da.jpg,1080.0,1080.0,1080p,2026-01-21T05:35:19.980Z,,,,,,,6.0,1.0,195.0,La Trinidad,Balili,,lettuce,,,,TECNO_TECNO_CM8_DF2CAC,controlled,6.8,0.0,0.0,0.0
02c1f82d,13,1,5,images/2026/01/21/latrinidad_balili_bsuback_20260121_060731_02c1f82d.jpg,1080.0,1080.0,1080p,2026-01-21T06:07:31.471Z,,,,,,,19.0,-15.0,256.0,La Trinidad,Balili,BSU Back,cabbage,,,,TECNO_TECNO_CM8_DF2CAC,controlled,5.8,0.0,0.0,0.0
2422912d,13,2,5,images/2026/01/21/latrinidad_balili_bsuback_20260121_060739_2422912d.jpg,1080.0,1080.0,1080p,2026-01-21T06:07:39.583Z,,,,,,,8.0,-3.0,255.0,La Trinidad,Balili,BSU Back,cabbage,,,,TECNO_TECNO_CM8_DF2CAC,controlled,5.8,0.0,0.0,0.0
6051391c,13,3,5,images/2026/01/21/latrinidad_balili_bsuback_20260121_060745_6051391c.jpg,1080.0,1080.0,1080p,2026-01-21T06:07:45.520Z,,,,,,,10.0,25.0,261.0,La Trinidad,Balili,BSU Back,cabbage,,,,TECNO_TECNO_CM8_DF2CAC,controlled,5.8,0.0,0.0,0.0
3afb78cb,13,4,5,images/2026/01/21/latrinidad_balili_bsuback_20260121_060751_3afb78cb.jpg,1080.0,1080.0,1080p,2026-01-21T06:07:51.147Z,,,,,,,5.0,25.0,346.0,La Trinidad,Balili,BSU Back,cabbage,,,,TECNO_TECNO_CM8_DF2CAC,controlled,5.8,0.0,0.0,0.0
6423ba4e,13,5,5,images/2026/01/21/latrinidad_balili_bsuback_20260121_060756_6423ba4e.jpg,1080.0,1080.0,1080p,2026-01-21T06:07:56.805Z,,,,,,,4.0,-2.0,271.0,La Trinidad,Balili,BSU Back,cabbage,,,,TECNO_TECNO_CM8_DF2CAC,controlled,5.8,0.0,0.0,0.0
00abc849,13,1,5,images/2026/01/21/latrinidad_balili_20260121_053640_00abc849.jpg,1080.0,1080.0,1080p,2026-01-21T05:36:40.935Z,,,,,,,24.0,0.0,195.0,La Trinidad,Balili,,lettuce,,,,TECNO_TECNO_CM8_DF2CAC,controlled,5.8,0.0,0.0,0.0
a1a36a3e,13,2,5,images/2026/01/21/latrinidad_balili_20260121_053643_a1a36a3e.jpg,1080.0,1080.0,1080p,2026-01-21T05:36:43.516Z,,,,,,,18.0,1.0,194.0,La Trinidad,Balili,,lettuce,,,,TECNO_TECNO_CM8_DF2CAC,controlled,5.8,0.0,0.0,0.0
bf6fa47d,13,3,5,images/2026/01/21/latrinidad_balili_20260121_053645_bf6fa47d.jpg,1080.0,1080.0,1080p,2026-01-21T05:36:45.911Z,,,,,,,9.0,2.0,194.0,La Trinidad,Balili,,lettuce,,,,TECNO_TECNO_CM8_DF2CAC,controlled,5.8,0.0,0.0,0.0
c85082e0,13,4,5,images/2026/01/21/latrinidad_balili_20260121_053648_c85082e0.jpg,1080.0,1080.0,1080p,2026-01-21T05:36:48.482Z,,,,,,,1.0,2.0,194.0,La Trinidad,Balili,,lettuce,,,,TECNO_TECNO_CM8_DF2CAC,controlled,5.8,0.0,0.0,0.0
9baecef0,13,1,10,images/2026/01/21/latrinidad_balili_bsuback_20260121_005354_9baecef0.jpg,1080.0,1080.0,1080p,2026-01-21T00:53:54.919Z,16.453574,120.591503,1363.0,11.0,4.2,1.0,13.0,0.0,134.0,La Trinidad,Balili,BSU Back,"lettuce,custom_iceberg",18.0,71.0,,realme_RMX3840_0FE2DF,field,5.8,0.0,0.0,0.0
5209e81c,13,2,10,images/2026/01/21/latrinidad_balili_bsuback_20260121_005358_5209e81c.jpg,1080.0,1080.0,1080p,2026-01-21T00:53:58.222Z,16.453574,120.591503,1363.0,11.0,4.2,1.0,12.0,2.0,132.0,La Trinidad,Balili,BSU Back,"lettuce,custom_iceberg",18.0,71.0,,realme_RMX3840_0FE2DF,field,5.8,0.0,0.0,0.0
85a18149,13,3,10,images/2026/01/21/latrinidad_balili_bsuback_20260121_005402_85a18149.jpg,1080.0,1080.0,1080p,2026-01-21T00:54:02.953Z,16.453574,120.591503,1363.0,11.0,4.2,1.0,40.0,-1.0,144.0,La Trinidad,Balili,BSU Back,"lettuce,custom_iceberg",18.0,71.0,,realme_RMX3840_0FE2DF,field,5.8,0.0,0.0,0.0
d0326bb8,13,4,10,images/2026/01/21/latrinidad_balili_bsuback_20260121_005405_d0326bb8.jpg,1080.0,1080.0,1080p,2026-01-21T00:54:05.947Z,16.453574,120.591503,1363.0,11.0,4.2,1.0,40.0,-1.0,143.0,La Trinidad,Balili,BSU Back,"lettuce,custom_iceberg",18.0,71.0,,realme_RMX3840_0FE2DF,field,5.8,0.0,0.0,0.0
c3e6f532,13,5,10,images/2026/01/21/latrinidad_balili_bsuback_20260121_005413_c3e6f532.jpg,1080.0,1080.0,1080p,2026-01-21T00:54:13.231Z,16.453574,120.591503,1363.0,11.0,4.2,1.0,44.0,-3.0,218.0,La Trinidad,Balili,BSU Back,"lettuce,custom_iceberg",18.0,71.0,,realme_RMX3840_0FE2DF,field,5.8,0.0,0.0,0.0
fa1d2e11,13,6,10,images/2026/01/21/latrinidad_balili_bsuback_20260121_005416_fa1d2e11.jpg,1080.0,1080.0,1080p,2026-01-21T00:54:17.006Z,16.453574,120.591503,1363.0,11.0,4.2,1.0,43.0,-3.0,219.0,La Trinidad,Balili,BSU Back,"lettuce,custom_iceberg",18.0,71.0,,realme_RMX3840_0FE2DF,field,5.8,0.0,0.0,0.0
bbbb04a9,13,7,10,images/2026/01/21/latrinidad_balili_bsuback_20260121_005427_bbbb04a9.jpg,1080.0,1080.0,1080p,2026-01-21T00:54:27.988Z,16.453574,120.591503,1363.0,11.0,4.2,1.0,45.0,11.0,18.0,La Trinidad,Balili,BSU Back,"lettuce,custom_iceberg",18.0,71.0,,realme_RMX3840_0FE2DF,field,5.8,0.0,0.0,0.0
5fddbd2e,13,8,10,images/2026/01/21/latrinidad_balili_bsuback_20260121_005431_5fddbd2e.jpg,1080.0,1080.0,1080p,2026-01-21T00:54:31.899Z,16.453574,120.591503,1363.0,11.0,4.2,1.0,45.0,13.0,16.0,La Trinidad,Balili,BSU Back,"lettuce,custom_iceberg",18.0,71.0,,realme_RMX3840_0FE2DF,field,5.8,0.0,0.0,0.0
4ebe6ece,13,9,10,images/2026/01/21/latrinidad_balili_bsuback_20260121_005440_4ebe6ece.jpg,1080.0,1080.0,1080p,2026-01-21T00:54:40.767Z,16.453574,120.591503,1363.0,11.0,4.2,1.0,29.0,1.0,299.0,La Trinidad,Balili,BSU Back,"lettuce,custom_iceberg",18.0,71.0,,realme_RMX3840_0FE2DF,field,5.8,0.0,0.0,0.0
25677ecd,13,10,10,images/2026/01/21/latrinidad_balili_bsuback_20260121_005445_25677ecd.jpg,1080.0,1080.0,1080p,2026-01-21T00:54:45.889Z,16.453574,120.591503,1363.0,11.0,4.2,1.0,39.0,11.0,296.0,La Trinidad,Balili,BSU Back,"lettuce,custom_iceberg",18.0,71.0,,realme_RMX3840_0FE2DF,field,5.8,0.0,0.0,0.0
ec88f187,14,1,5,images/2026/01/21/latrinidad_balili_20260121_054244_ec88f187.jpg,1080.0,1080.0,1080p,2026-01-21T05:42:44.033Z,,,,,,,26.0,0.0,197.0,La Trinidad,Balili,,lettuce,,,,TECNO_TECNO_CM8_DF2CAC,controlled,5.8,0.0,1.0,0.0
2b33eda0,14,2,5,images/2026/01/21/latrinidad_balili_20260121_054246_2b33eda0.jpg,1080.0,1080.0,1080p,2026-01-21T05:42:46.568Z,,,,,,,17.0,0.0,197.0,La Trinidad,Balili,,lettuce,,,,TECNO_TECNO_CM8_DF2CAC,controlled,5.8,0.0,1.0,0.0
d425a444,14,3,5,images/2026/01/21/latrinidad_balili_20260121_054249_d425a444.jpg,1080.0,1080.0,1080p,2026-01-21T05:42:49.304Z,,,,,,,11.0,0.0,197.0,La Trinidad,Balili,,lettuce,,,,TECNO_TECNO_CM8_DF2CAC,controlled,5.8,0.0,1.0,0.0
b311722a,14,4,5,images/2026/01/21/latrinidad_balili_20260121_054252_b311722a.jpg,1080.0,1080.0,1080p,2026-01-21T05:42:52.011Z,,,,,,,4.0,0.0,198.0,La Trinidad,Balili,,lettuce,,,,TECNO_TECNO_CM8_DF2CAC,controlled,5.8,0.0,1.0,0.0
7e979247,14,1,10,images/2026/01/21/latrinidad_balili_bsuback_20260121_005707_7e979247.jpg,1080.0,1080.0,1080p,2026-01-21T00:57:07.876Z,16.453532,120.591589,1363.0,10.0,3.8,1.0,29.0,7.0,44.0,La Trinidad,Balili,BSU Back,"lettuce,custom_iceberg",18.0,71.0,,realme_RMX3840_0FE2DF,field,5.8,0.0,1.0,0.0
9df84ddc,14,3,10,images/2026/01/21/latrinidad_balili_bsuback_20260121_005717_9df84ddc.jpg,1080.0,1080.0,1080p,2026-01-21T00:57:17.320Z,16.453532,120.591589,1363.0,10.0,3.8,1.0,29.0,-4.0,139.0,La Trinidad,Balili,BSU Back,"lettuce,custom_iceberg",18.0,71.0,,realme_RMX3840_0FE2DF,field,5.8,0.0,1.0,0.0
b28af9a8,14,5,10,images/2026/01/21/latrinidad_balili_bsuback_20260121_005732_b28af9a8.jpg,1080.0,1080.0,1080p,2026-01-21T00:57:32.175Z,16.453532,120.591589,1363.0,10.0,3.8,1.0,35.0,1.0,315.0,La Trinidad,Balili,BSU Back,"lettuce,custom_iceberg",18.0,71.0,,realme_RMX3840_0FE2DF,field,5.8,0.0,1.0,0.0
dd166f55,14,7,10,images/2026/01/21/latrinidad_balili_bsuback_20260121_005741_dd166f55.jpg,1080.0,1080.0,1080p,2026-01-21T00:57:41.575Z,16.453532,120.591589,1363.0,10.0,3.8,1.0,26.0,4.0,218.0,La Trinidad,Balili,BSU Back,"lettuce,custom_iceberg",18.0,71.0,,realme_RMX3840_0FE2DF,field,5.8,0.0,1.0,0.0
4e0a65e4,14,9,10,images/2026/01/21/latrinidad_balili_bsuback_20260121_005750_4e0a65e4.jpg,1080.0,1080.0,1080p,2026-01-21T00:57:50.515Z,16.453532,120.591589,1363.0,10.0,3.8,1.0,6.0,1.0,298.0,La Trinidad,Balili,BSU Back,"lettuce,custom_iceberg",18.0,71.0,,realme_RMX3840_0FE2DF,field,5.8,0.0,1.0,0.0
a0df6fc8,15,1,10,images/2026/01/21/latrinidad_balili_bsuback_20260121_005859_a0df6fc8.jpg,1080.0,1080.0,1080p,2026-01-21T00:58:59.222Z,16.453567,120.591606,1363.0,12.0,2.5,1.0,29.0,-19.0,164.0,La Trinidad,Balili,BSU Back,"lettuce,custom_iceberg_lettuce",18.5,67.0,,TECNO_TECNO_CM8_5EAA20,field,6.8,0.0,0.0,0.0
a428ddaa,15,2,10,images/2026/01/21/latrinidad_balili_bsuback_20260121_005903_a428ddaa.jpg,1080.0,1080.0,1080p,2026-01-21T00:59:03.790Z,16.453567,120.591606,1363.0,12.0,2.5,1.0,18.0,-5.0,157.0,La Trinidad,Balili,BSU Back,"lettuce,custom_iceberg_lettuce",18.5,67.0,,TECNO_TECNO_CM8_5EAA20,field,6.8,0.0,0.0,0.0
b092d941,15,3,10,images/2026/01/21/latrinidad_balili_bsuback_20260121_005908_b092d941.jpg,1080.0,1080.0,1080p,2026-01-21T00:59:08.377Z,16.453567,120.591606,1363.0,12.0,2.5,1.0,20.0,40.0,124.0,La Trinidad,Balili,BSU Back,"lettuce,custom_iceberg_lettuce",18.5,67.0,,TECNO_TECNO_CM8_5EAA20,field,6.8,0.0,0.0,0.0
1a215050,15,4,10,images/2026/01/21/latrinidad_balili_bsuback_20260121_005912_1a215050.jpg,1080.0,1080.0,1080p,2026-01-21T00:59:12.912Z,16.453567,120.591606,1363.0,12.0,2.5,1.0,44.0,3.0,150.0,La Trinidad,Balili,BSU Back,"lettuce,custom_iceberg_lettuce",18.5,67.0,,TECNO_TECNO_CM8_5EAA20,field,6.8,0.0,0.0,0.0
beb3992c,15,5,10,images/2026/01/21/latrinidad_balili_bsuback_20260121_005919_beb3992c.jpg,1080.0,1080.0,1080p,2026-01-21T00:59:19.278Z,16.453554,120.591626,1360.0,12.0,3.0,1.0,46.0,0.0,6.0,La Trinidad,Balili,BSU Back,"lettuce,custom_iceberg_lettuce",18.5,67.0,,TECNO_TECNO_CM8_5EAA20,field,6.8,0.0,0.0,0.0
733400b4,15,6,10,images/2026/01/21/latrinidad_balili_bsuback_20260121_005924_733400b4.jpg,1080.0,1080.0,1080p,2026-01-21T00:59:24.393Z,16.453554,120.591626,1360.0,12.0,3.0,1.0,31.0,3.0,6.0,La Trinidad,Balili,BSU Back,"lettuce,custom_iceberg_lettuce",18.5,67.0,,TECNO_TECNO_CM8_5EAA20,field,6.8,0.0,0.0,0.0
3080111c,15,7,10,images/2026/01/21/latrinidad_balili_bsuback_20260121_005929_3080111c.jpg,1080.0,1080.0,1080p,2026-01-21T00:59:29.161Z,16.453554,120.591626,1360.0,12.0,3.0,1.0,15.0,9.0,345.0,La Trinidad,Balili,BSU Back,"lettuce,custom_iceberg_lettuce",18.5,67.0,,TECNO_TECNO_CM8_5EAA20,field,6.8,0.0,0.0,0.0
5caeb2ab,15,8,10,images/2026/01/21/latrinidad_balili_bsuback_20260121_005934_5caeb2ab.jpg,1080.0,1080.0,1080p,2026-01-21T00:59:34.153Z,16.453556,120.591649,1363.0,4.0,3.0,1.0,8.0,4.0,349.0,La Trinidad,Balili,BSU Back,"lettuce,custom_iceberg_lettuce",18.5,67.0,,TECNO_TECNO_CM8_5EAA20,field,6.8,0.0,0.0,0.0
42b024fb,15,9,10,images/2026/01/21/latrinidad_balili_bsuback_20260121_005940_42b024fb.jpg,1080.0,1080.0,1080p,2026-01-21T00:59:40.119Z,16.453556,120.591649,1363.0,4.0,3.0,1.0,29.0,14.0,1.0,La Trinidad,Balili,BSU Back,"lettuce,custom_iceberg_lettuce",18.5,67.0,,TECNO_TECNO_CM8_5EAA20,field,6.8,0.0,0.0,0.0
b053118b,15,10,10,images/2026/01/21/latrinidad_balili_bsuback_20260121_005951_b053118b.jpg,1080.0,1080.0,1080p,2026-01-21T00:59:51.308Z,16.453556,120.591649,1363.0,4.0,3.0,1.0,10.0,8.0,357.0,La Trinidad,Balili,BSU Back,"lettuce,custom_iceberg_lettuce",18.5,67.0,,TECNO_TECNO_CM8_5EAA20,field,6.8,0.0,0.0,0.0
c400718e,15,1,5,images/2026/01/21/latrinidad_balili_20260121_054344_c400718e.jpg,1080.0,1080.0,1080p,2026-01-21T05:43:44.961Z,,,,,,,34.0,1.0,198.0,La Trinidad,Balili,,lettuce,,,,TECNO_TECNO_CM8_DF2CAC,controlled,6.8,0.0,0.0,0.0
7c25b36f,15,2,5,images/2026/01/21/latrinidad_balili_20260121_054347_7c25b36f.jpg,1080.0,1080.0,1080p,2026-01-21T05:43:47.850Z,,,,,,,27.0,1.0,198.0,La Trinidad,Balili,,lettuce,,,,TECNO_TECNO_CM8_DF2CAC,controlled,6.8,0.0,0.0,0.0
e7ccd680,15,3,5,images/2026/01/21/latrinidad_balili_20260121_054350_e7ccd680.jpg,1080.0,1080.0,1080p,2026-01-21T05:43:50.501Z,,,,,,,18.0,2.0,197.0,La Trinidad,Balili,,lettuce,,,,TECNO_TECNO_CM8_DF2CAC,controlled,6.8,0.0,0.0,0.0
011a6439,15,4,5,images/2026/01/21/latrinidad_balili_20260121_054353_011a6439.jpg,1080.0,1080.0,1080p,2026-01-21T05:43:53.199Z,,,,,,,7.0,3.0,198.0,La Trinidad,Balili,,lettuce,,,,TECNO_TECNO_CM8_DF2CAC,controlled,6.8,0.0,0.0,0.0
9dca958f,16,1,5,images/2026/01/21/latrinidad_balili_20260121_054512_9dca958f.jpg,1080.0,1080.0,1080p,2026-01-21T05:45:12.140Z,,,,,,,35.0,-2.0,197.0,La Trinidad,Balili,,lettuce,,,,TECNO_TECNO_CM8_DF2CAC,controlled,6.8,1.0,0.0,0.0
224c7f23,16,2,5,images/2026/01/21/latrinidad_balili_20260121_054514_224c7f23.jpg,1080.0,1080.0,1080p,2026-01-21T05:45:14.958Z,,,,,,,28.0,-2.0,198.0,La Trinidad,Balili,,lettuce,,,,TECNO_TECNO_CM8_DF2CAC,controlled,6.8,1.0,0.0,0.0
